stop_id,stop_code,stop_name,stop_desc,stop_lat,stop_lon,zone_id,stop_url,location_type,platform_code
S4073,,那覇バスターミナル,,26.210929,127.676747,S4073,,,
S3202,,県庁北口,,26.213519,127.679773,S3202,,,
S4128,,沖縄タイムス前,,26.216911,127.679497,S4128,,,
S3395,,ラ・ジェント・ホテル沖縄那覇前,,26.219286,127.681548,S3395,,,
S4137,,泊高橋,,26.223437,127.683959,S4137,,,
S3029,,楽市前,,26.230413,127.688913,S3029,,,
S4443,,合同庁舎前,,26.227878,127.691790,S4443,,,
S4441,,県立博物館前,,26.226865,127.692720,S4441,,,
S4439,,おもろまち一丁目,,26.224899,127.694533,S4439,,,
S4437,,那覇メインプレイス東口,,26.224747,127.695573,S4437,,,
S3399,,首里駅前,,26.219177,127.725914,S3399,,,
S4438,,那覇メインプレイス東口,,26.224894,127.696012,S4438,,,
S4440,,おもろまち一丁目,,26.225019,127.694169,S4440,,,
S4442,,県立博物館前,,26.226778,127.692542,S4442,,,
S4444,,合同庁舎前,,26.227782,127.691554,S4444,,,
S3466,,上之屋,,26.228953,127.686454,S3466,,,
S4135,,泊高橋,,26.224327,127.684813,S4135,,,
S3394,,ラ・ジェント・ホテル沖縄那覇前,,26.218961,127.681630,S3394,,,
S4127,,沖縄タイムス前,,26.216311,127.679297,S4127,,,
S3203,,県庁北口,,26.213248,127.679585,S3203,,,
S4072,,那覇バスターミナル,,26.211168,127.676814,S4072,,,
S2712,,おもろまち駅前広場,,26.223541,127.698009,S2712,,,
S2711,,おもろまち駅前広場（終点）,,26.223461,127.697795,S2711,,,
S4385,,旭町,,26.209177,127.678766,S4385,,,
S3617,,西壷川,,26.206329,127.680364,S3617,,,
S2167,,第一古波蔵,,26.200680,127.685397,S2167,,,
S1959,,古波蔵,,26.199370,127.687359,S1959,,,
S2159,,古蔵中学校前,,26.196897,127.690563,S2159,,,
S2349,,真玉橋,,26.195947,127.694530,S2349,,,
S2124,,樋川,,26.195714,127.701696,S2124,,,
S3283,,国場,,26.196576,127.705657,S3283,,,
S3448,,上間,,26.197739,127.709369,S3448,,,
S4078,,那覇市民体育館前,,26.200081,127.714367,S4078,,,
S2090,,真和志高校前,,26.202964,127.721044,S2090,,,
S3205,,県立医療センター前,,26.205563,127.722194,S3205,,,
S4067,,那覇インター前,,26.209852,127.722569,S4067,,,
S3327,,崎山,,26.212144,127.723654,S3327,,,
S3977,,鳥堀公民館前,,26.216846,127.725660,S3977,,,
S2293,,鳥堀,,26.217670,127.724566,S2293,,,
S3661,,赤田,,26.216196,127.724993,S3661,,,
S3328,,崎山,,26.213229,127.725143,S3328,,,
S4068,,那覇インター前,,26.209230,127.722977,S4068,,,
S3206,,県立医療センター前,,26.205921,127.722672,S3206,,,
S4079,,那覇市民体育館前,,26.199781,127.714495,S4079,,,
S3449,,上間,,26.197717,127.710115,S3449,,,
S3287,,国場,,26.195564,127.703796,S3287,,,
S1962,,樋川,,26.195731,127.700863,S1962,,,
S2154,,真玉橋,,26.195697,127.694247,S2154,,,
S2020,,古蔵中学校前,,26.196364,127.691097,S2020,,,
S1989,,古波蔵,,26.199480,127.686864,S1989,,,
S4387,,壷川,,26.204162,127.681958,S4387,,,
S3618,,西壷川,,26.206160,127.680347,S3618,,,
S4386,,旭町,,26.209234,127.678581,S4386,,,
S3467,,上之屋,,26.230640,127.685911,S3467,,,
S3813,,第一天久,,26.232825,127.685460,S3813,,,
S3988,,天久,,26.235493,127.686295,S3988,,,
S2787,,安謝,,26.238259,127.687645,S2787,,,
S2789,,安謝橋,,26.240418,127.689350,S2789,,,
S3582,,勢理客,,26.242588,127.691136,S3582,,,
S3809,,第一仲西,,26.246958,127.697044,S3809,,,
S3949,,仲西,,26.250292,127.700960,S3949,,,
S3107,,宮城,,26.251775,127.703227,S3107,,,
S2973,,屋富祖,,26.254908,127.706460,S2973,,,
S3475,,城間,,26.257741,127.709392,S3475,,,
S3857,,SCSK沖縄センター前,,26.260129,127.711397,S3857,,,
S3251,,港川,,26.265140,127.714358,S3251,,,
S3817,,ブルーシール本店前,,26.267441,127.719503,S3817,,,
S4281,,牧港ブルーシール本店北側,,26.266824,127.725191,S4281,,,
S2876,,宇地泊,,26.268379,127.730602,S2876,,,
S2724,,コンベンションセンター前,,26.278889,127.734556,S2724,,,
S3075,,ラグナガーデンホテル前,,26.278490,127.737388,S3075,,,
S3530,,真志喜駐車場,,26.276473,127.735439,S3530,,,
S2725,,コンベンションセンター前,,26.278866,127.736025,S2725,,,
S2875,,宇地泊,,26.267586,127.728891,S2875,,,
S4280,,牧港ブルーシール本店北側,,26.266416,127.722218,S4280,,,
S3250,,港川,,26.264524,127.714308,S3250,,,
S3856,,SCSK沖縄センター前,,26.260567,127.711987,S3856,,,
S3474,,城間,,26.257618,127.709740,S3474,,,
S2972,,屋富祖,,26.254458,127.706426,S2972,,,
S3104,,宮城,,26.252491,127.704376,S3104,,,
S3950,,仲西,,26.250050,127.701205,S3950,,,
S3810,,第一仲西,,26.245417,127.695664,S3810,,,
S3584,,勢理客,,26.243492,127.692428,S3584,,,
S2788,,安謝橋,,26.240302,127.689731,S2788,,,
S2786,,安謝,,26.238026,127.687923,S2786,,,
S3989,,天久,,26.235433,127.686549,S3989,,,
S3814,,第一天久,,26.232724,127.685745,S3814,,,
S3729,,大謝名,,26.269257,127.734290,S3729,,,
S3527,,真志喜,,26.271257,127.738589,S3527,,,
S3860,,第二真志喜,,26.272824,127.737876,S3860,,,
S3073,,宜野湾高校前,,26.275604,127.735307,S3073,,,
S3074,,宜野湾高校前,,26.275406,127.735656,S3074,,,
S3861,,第二真志喜,,26.273397,127.737522,S3861,,,
S3528,,真志喜,,26.272434,127.738380,S3528,,,
S3732,,大謝名,,26.269019,127.734352,S3732,,,
S4397,,安里,屋宜修正1.27,26.219120,127.694562,S4397,,,
S4399,,崇元寺,屋宜修正1.27,26.220214,127.690369,S4399,,,
S4401,,中之橋,屋宜修正1.27,26.222347,127.687629,S4401,,,
S4407,,泊高橋,,26.224243,127.686023,S4407,,,
S3801,,第一大山,,26.276296,127.742585,S3801,,,
S3727,,大山,,26.279323,127.747838,S3727,,,
S2804,,伊佐,,26.284355,127.754121,S2804,,,
S2806,,伊佐川,,26.287955,127.756187,S2806,,,
S2807,,伊佐浜,,26.292888,127.759053,S2807,,,
S4258,,北前,,26.295271,127.760087,S4258,,,
S4260,,北谷,,26.306187,127.763186,S4260,,,
S3388,,謝苅入口,,26.311486,127.762419,S3388,,,
S4389,,美浜アメリカンビレッジ入口,,26.315000,127.760603,S4389,,,
S3098,,久良波,,26.437035,127.778405,S3098,,,
S2761,,ルネッサンスホテル前,,26.436298,127.790716,S2761,,,
S3959,,仲泊,,26.438284,127.801701,S3959,,,
S3561,,世富慶,,26.576055,127.984211,S3561,,,
S4034,,東江入口,,26.582338,127.986233,S4034,,,
S4032,,東江,,26.584427,127.985921,S4032,,,
S4311,,名護城入口,,26.586913,127.986117,S4311,,,
S4306,,名護十字路,,26.588960,127.984704,S4306,,,
S4307,,名護十字路,,26.590260,127.985254,S4307,,,
S3209,,県立北部病院前,,26.593077,127.987987,S3209,,,
S3917,,中区,,26.595882,127.990970,S3917,,,
S3758,,大北,,26.600026,127.995386,S3758,,,
S4308,,名護商工高校前,,26.602226,127.990720,S4308,,,
S4298,,名護高校前,,26.603559,127.984554,S4298,,,
S3742,,大西五丁目,,26.603659,127.983054,S3742,,,
S3889,,第二名座喜原,,26.601992,127.976088,S3889,,,
S4296,,名護バスターミナル,,26.596442,127.965422,S4296,,,
S3749,,大中,,26.590393,127.983221,S3749,,,
S3741,,大西,,26.591543,127.981521,S3741,,,
S4275,,北部合同庁舎前,,26.593276,127.978321,S4275,,,
S3755,,大南,,26.594460,127.975772,S3755,,,
S3119,,宮里一丁目,,26.595426,127.971955,S3119,,,
S3121,,宮里三丁目,,26.596209,127.968355,S3121,,,
S4297,,名護バスターミナル,,26.596359,127.965772,S4297,,,
S3120,,宮里三丁目,,26.596193,127.968972,S3120,,,
S3118,,宮里一丁目,,26.595638,127.971551,S3118,,,
S3754,,大南,,26.594659,127.975622,S3754,,,
S4274,,北部合同庁舎前,,26.593110,127.978905,S4274,,,
S3740,,大西,,26.591810,127.981238,S3740,,,
S3748,,大中,,26.590727,127.982921,S3748,,,
S4304,,名護十字路,,26.588794,127.984954,S4304,,,
S4310,,名護城入口,,26.586711,127.986371,S4310,,,
S4031,,東江,,26.584394,127.986088,S4031,,,
S4033,,東江入口,,26.582294,127.986355,S4033,,,
S3560,,世富慶,,26.576824,127.984689,S3560,,,
S3958,,仲泊,,26.438072,127.801548,S3958,,,
S2760,,ルネッサンスホテル前,,26.435890,127.790555,S2760,,,
S3097,,久良波,,26.437045,127.778492,S3097,,,
S3389,,謝苅入口,,26.311119,127.762986,S3389,,,
S4261,,北谷,,26.305803,127.763352,S4261,,,
S4259,,北前,,26.296638,127.760820,S4259,,,
S2808,,伊佐浜,,26.290990,127.758031,S2808,,,
S2805,,伊佐川,,26.287722,127.756387,S2805,,,
S2803,,伊佐,,26.284339,127.754421,S2803,,,
S3726,,大山,,26.278956,127.747722,S3726,,,
S3800,,第一大山,,26.276373,127.743189,S3800,,,
S3529,,真志喜,,26.272456,127.739539,S3529,,,
S4408,,泊高橋,,26.225013,127.685766,S4408,,,
S4402,,中之橋,,26.222529,127.687618,S4402,,,
S4400,,崇元寺,,26.220275,127.690555,S4400,,,
S4398,,安里,,26.217887,127.693087,S4398,,,
S3934,,中部病院,,26.354597,127.835049,S3934,,,
S3936,,中部病院前,,26.356349,127.834744,S3936,,,
S3364,,志林川,,26.357616,127.838377,S3364,,,
S3051,,喜仲入口,,26.359366,127.842693,S3051,,,
S3468,,上平良川,,26.363015,127.847543,S3468,,,
S4230,,平良川,,26.365815,127.850092,S4230,,,
S3168,,具志川郵便局前,,26.369598,127.851542,S3168,,,
S3930,,中農前,,26.371972,127.852355,S3930,,,
S2782,,安慶名,,26.373622,127.853249,S2782,,,
S3127,,旧安慶名,,26.378364,127.851175,S3127,,,
S3683,,川崎小学校前,,26.382597,127.845392,S3683,,,
S3681,,川崎,,26.383780,127.841926,S3681,,,
S3867,,第二川崎,,26.385613,127.837743,S3867,,,
S2900,,栄野比入口,,26.389312,127.834843,S2900,,,
S2898,,栄野比,,26.391445,127.832676,S2898,,,
S2702,,いずみ病院入口,,26.395578,127.832509,S2702,,,
S4169,,美原入口,,26.407927,127.829142,S4169,,,
S4028,,東恩納,,26.412262,127.826583,S4028,,,
S3641,,石川入口,,26.417243,127.825842,S3641,,,
S3630,,石川公民館前,,26.420126,127.825075,S3630,,,
S4094,,南栄入口,,26.425499,127.825606,S4094,,,
S3634,,石川市場前,,26.428058,127.826992,S3634,,,
S4364,,琉映前,,26.429791,127.828225,S4364,,,
S3638,,石川電話局前,,26.431674,127.829991,S3638,,,
S3658,,赤崎,,26.434258,127.834607,S3658,,,
S3636,,石川少年自然の家入口,,26.434615,127.839140,S3636,,,
S3423,,小浜,,26.439332,127.843877,S3423,,,
S2918,,塩先原,,26.442723,127.847149,S2918,,,
S2955,,屋嘉入口,,26.447665,127.849161,S2955,,,
S2947,,屋嘉,,26.451835,127.852587,S2947,,,
S2949,,屋嘉ビーチ前,,26.452723,127.855188,S2949,,,
S2991,,嘉芸小学校前,,26.454106,127.858071,S2991,,,
S2951,,屋嘉第二団地入口,,26.456305,127.864042,S2951,,,
S2993,,嘉芸荘前,,26.457530,127.868076,S2993,,,
S2802,,伊芸入口,,26.455916,127.877603,S2802,,,
S2800,,伊芸,,26.456781,127.880613,S2800,,,
S4221,,平田原,,26.458193,127.884083,S4221,,,
S4015,,渡慶頭,,26.449798,127.904216,S4015,,,
S4188,,浜田,,26.451675,127.912053,S4188,,,
S3151,,金武入口,,26.454230,127.917972,S3151,,,
S3143,,金武,,26.454096,127.919891,S3143,,,
S3153,,金武農協前,,26.453904,127.923855,S3153,,,
S3147,,金武小学校入口,,26.454219,127.924907,S3147,,,
S3149,,金武町役場前,,26.455973,127.927015,S3149,,,
S3050,,喜瀬武原入口,,26.459147,127.929691,S3050,,,
S3157,,銀原,,26.466325,127.937315,S3157,,,
S3926,,中川,,26.468906,127.939747,S3926,,,
S3477,,城原,,26.469722,127.942613,S3477,,,
S4405,,道の駅ぎのざ,,26.473278,127.952408,S4405,,,
S3035,,漢那,,26.475753,127.958268,S3035,,,
S4404,,漢那北,,26.476257,127.963107,S4404,,,
S4209,,福山,,26.480751,127.968346,S4209,,,
S3916,,中央公民館前,,26.480614,127.972935,S3916,,,
S3070,,宜野座小学校前,,26.480691,127.976113,S3070,,,
S3068,,宜野座高校前,,26.482502,127.977915,S3068,,,
S3433,,松田小学校前,,26.491087,127.989442,S3433,,,
S3431,,松田,,26.493195,127.992498,S3431,,,
S3031,,潟原,,26.506821,127.992021,S3031,,,
S3491,,新町入口,,26.516612,128.003640,S3491,,,
S3089,,久志入口,,26.520018,128.010289,S3089,,,
S4257,,豊原入口,,26.521834,128.022237,S4257,,,
S4243,,辺野古,,26.523368,128.029220,S4243,,,
S3888,,沖縄高専入口,,26.525360,128.033151,S3888,,,
S3831,,第二ゲイト,,26.529634,128.042821,S3831,,,
S4120,,二見入口,,26.545249,128.026370,S4120,,,
S3863,,第二世富慶,,26.574329,127.985655,S3863,,,
S3862,,第二世富慶,,26.574912,127.985055,S3862,,,
S4119,,二見入口　,,26.545099,128.026586,S4119,,,
S3830,,第二ゲイト,,26.529284,128.042669,S3830,,,
S3887,,沖縄高専入口,,26.525235,128.033037,S3887,,,
S4242,,辺野古,,26.523185,128.029054,S4242,,,
S4256,,豊原入口,,26.521601,128.020587,S4256,,,
S3087,,久志入口,,26.520044,128.010742,S3087,,,
S3488,,新町入口,,26.516602,128.003839,S3488,,,
S3030,,潟原,,26.506666,127.992010,S3030,,,
S3430,,松田,,26.493413,127.992577,S3430,,,
S3432,,松田小学校前,,26.489980,127.988361,S3432,,,
S3067,,宜野座高校前,,26.481988,127.977343,S3067,,,
S3069,,宜野座小学校前,,26.480477,127.976134,S3069,,,
S3915,,中央公民館前,,26.480665,127.972634,S3915,,,
S4208,,福山,,26.481072,127.969611,S4208,,,
S4403,,漢那北,,26.476089,127.963080,S4403,,,
S3034,,漢那,,26.475689,127.958445,S3034,,,
S4406,,道の駅ぎのざ,,26.473492,127.952930,S4406,,,
S3476,,城原,,26.469322,127.941797,S3476,,,
S3925,,中川,,26.468214,127.938988,S3925,,,
S3156,,銀原,,26.466388,127.937506,S3156,,,
S3049,,喜瀬武原入口,,26.457746,127.928535,S3049,,,
S3148,,金武町役場前,,26.456023,127.927141,S3148,,,
S3146,,金武小学校入口,,26.454510,127.925979,S3146,,,
S3152,,金武農協前,,26.453593,127.923128,S3152,,,
S3142,,金武,,26.453890,127.920233,S3142,,,
S3150,,金武入口,,26.454090,127.917966,S3150,,,
S4187,,浜田,,26.451807,127.912550,S4187,,,
S4014,,渡慶頭,,26.449706,127.904302,S4014,,,
S4220,,平田原,,26.457804,127.883407,S4220,,,
S2799,,伊芸,,26.456392,127.879701,S2799,,,
S2801,,伊芸入口,,26.455667,127.877169,S2801,,,
S2992,,嘉芸荘前,,26.457256,127.867631,S2992,,,
S2950,,屋嘉第二団入口,,26.456161,127.863988,S2950,,,
S2990,,嘉芸小学校前,,26.454163,127.858468,S2990,,,
S2948,,屋嘉ビーチ前,,26.452489,127.854705,S2948,,,
S2946,,屋嘉,,26.451706,127.852638,S2946,,,
S2954,,屋嘉入口,,26.448140,127.849439,S2954,,,
S2917,,塩先原,,26.442410,127.847230,S2917,,,
S3422,,小浜,,26.438011,127.843083,S3422,,,
S3637,,石川少年自然の家入口,,26.434350,127.839156,S3637,,,
S3657,,赤崎,,26.433991,127.834657,S3657,,,
S3639,,石川電話局前,,26.430941,127.829458,S3639,,,
S4365,,琉映前,,26.429195,127.827917,S4365,,,
S3635,,石川市場前,,26.427108,127.826533,S3635,,,
S4093,,南栄入口,,26.424079,127.825233,S4093,,,
S3631,,石川公民館前,,26.419776,127.825309,S3631,,,
S3642,,石川入口,,26.417009,127.826125,S3642,,,
S4029,,東恩納,,26.410243,127.827842,S4029,,,
S4170,,美原入口,,26.407010,127.829742,S4170,,,
S2703,,いずみ病院入口,,26.395828,127.832676,S2703,,,
S2897,,栄野比,,26.391629,127.832743,S2897,,,
S2899,,栄野比入口,,26.389179,127.835593,S2899,,,
S3866,,第二川崎,,26.385579,127.837926,S3866,,,
S3680,,川崎,,26.383846,127.842576,S3680,,,
S3682,,川崎小学校前,,26.382447,127.846092,S3682,,,
S3126,,旧安慶名,,26.377281,127.851708,S3126,,,
S2780,,安慶名,,26.374800,127.853984,S2780,,,
S3929,,中農前,,26.372281,127.852642,S3929,,,
S3169,,具志川郵便局前,,26.368648,127.851292,S3169,,,
S4231,,平良川,,26.364965,127.849943,S4231,,,
S3469,,上平良川,,26.363515,127.848433,S3469,,,
S3052,,喜仲入口,,26.358616,127.841893,S3052,,,
S3365,,志林川,,26.357382,127.837844,S3365,,,
S3938,,中部病院前,,26.356099,127.834878,S3938,,,
S3933,,中部病院,,26.354581,127.835099,S3933,,,
S4429,,久茂地公民館前,,26.215743,127.680216,S4429,,,
S4431,,美栄橋駅前,,26.219750,127.685655,S4431,,,
S4433,,牧志公園前,,26.218886,127.691679,S4433,,,
S3730,,大謝名,,26.268104,127.734150,S3730,,,
S3927,,中大謝名,,26.266497,127.736724,S3927,,,
S3456,,上大謝名,,26.264771,127.739122,S3456,,,
S3858,,第二真栄原,,26.262241,127.741509,S3858,,,
S3507,,真栄原,,26.260091,127.745039,S3507,,,
S3309,,佐真下,,26.258225,127.748989,S3309,,,
S3011,,我如古,,26.256575,127.752489,S3011,,,
S3932,,中部商業高校前,,26.257059,127.754718,S3932,,,
S3360,,志真志,,26.259958,127.758972,S3360,,,
S3971,,長田,屋宜修正1.30,26.262991,127.761738,S3971,,,
S3072,,宜野湾,,26.265508,127.764388,S3072,,,
S2772,,愛知,屋宜修正1.30,26.268224,127.767221,S2772,,,
S3663,,赤道,屋宜修正1.30,26.270757,127.769920,S3663,,,
S3920,,中原,,26.274374,127.773736,S3920,,,
S3451,,上原,,26.276857,127.777369,S3451,,,
S3080,,宜野湾市役所前,,26.279956,127.778219,S3080,,,
S4322,,野嵩,,26.284156,127.776352,S4322,,,
S4198,,普天間市場入口,,26.288872,127.777719,S4198,,,
S4195,,普天間,,26.291298,127.777438,S4195,,,
S3646,,石平,,26.297071,127.780451,S3646,,,
S4202,,武宇留原,,26.300245,127.780391,S4202,,,
S3554,,瑞慶覧,,26.304687,127.779201,S3554,,,
S3756,,大平,北中城村,26.308670,127.782484,S3756,,,
S2962,,屋宜原,,26.311253,127.788250,S2962,,,
S4155,,比嘉西原,,26.315595,127.793053,S4155,,,
S2742,,プラザハウス前,,26.318586,127.793249,S2742,,,
S3353,,山里,,26.324185,127.792916,S3353,,,
S3410,,諸見,,26.327935,127.793766,S3410,,,
S2903,,園田,,26.330451,127.795982,S2903,,,
S3911,,中の町,,26.333634,127.798715,S3911,,,
S3227,,胡屋,,26.336201,127.800681,S3227,,,
S2989,,嘉間良,,26.337617,127.806564,S2989,,,
S2779,,安慶田,,26.338201,127.811130,S2779,,,
S2719,,コザ,,26.339601,127.816080,S2719,,,
S3081,,吉原入口,,26.342008,127.818710,S3081,,,
S4171,,美里入口,,26.345367,127.821596,S4171,,,
S4167,,美原一丁目,,26.347450,127.823579,S4167,,,
S3246,,江洲,,26.350466,127.826412,S3246,,,
S3666,,赤道十字路,,26.354974,127.831182,S3666,,,
S3935,,中部病院前,,26.356316,127.833828,S3935,,,
S3619,,西田場,,26.374564,127.856008,S3619,,,
S3706,,前原高校前,,26.372115,127.860341,S3706,,,
S4010,,田場,,26.370215,127.862841,S4010,,,
S4038,,東田場,,26.366632,127.867174,S4038,,,
S3154,,金武湾,,26.363116,127.869008,S3154,,,
S3160,,具志川,,26.356266,127.869841,S3160,,,
S3712,,大田入口,,26.349201,127.870375,S3712,,,
S3690,,川田入口,,26.347284,127.870608,S3690,,,
S3550,,水井原,,26.345251,127.872175,S3550,,,
S4115,,南風原入口,,26.344118,127.875541,S4115,,,
S3464,,上南風原,,26.339835,127.879775,S3464,,,
S3444,,照間,,26.335802,127.882108,S3444,,,
S3593,,西原,,26.328953,127.884975,S3593,,,
S3196,,県営与那城団地入口,,26.326887,127.887241,S3196,,,
S4350,,与那城,,26.325170,127.889674,S4350,,,
S2794,,安武堂,,26.319709,127.893061,S2794,,,
S4215,,平安名,,26.316155,127.896741,S4215,,,
S4087,,内間入口,,26.315788,127.899574,S4087,,,
S3615,,西中原,,26.310839,127.907740,S3615,,,
S4224,,平敷屋,,26.309222,127.912073,S4224,,,
S4383,,饒辺,,26.314005,127.909890,S4383,,,
S4218,,平田原,,26.318088,127.909040,S4218,,,
S4026,,東屋慶名,,26.321621,127.910589,S4026,,,
S4356,,与那城郵便局前,,26.322987,127.908206,S4356,,,
S2966,,屋慶名,,26.323477,127.907053,S2966,,,
S3589,,西屋慶名,,26.325387,127.904273,S3589,,,
S4352,,与那城小学校前,,26.327253,127.902040,S4352,,,
S2696,,ＪＡ与那城前,,26.329303,127.902640,S2696,,,
S4354,,与那城庁舎前,,26.329320,127.903873,S4354,,,
S273,,屋慶名バスターミナル,1340a296-dc1a-4202-b6fd-04b26cb9a208,26.327470,127.905706,S273,,,
S2968,,屋慶名バスターミナル,,26.327470,127.905706,S2968,,,
S4355,,与那城庁舎前,,26.328837,127.904273,S4355,,,
S2697,,ＪＡ与那城前,,26.328935,127.902380,S2697,,,
S4353,,与那城小学校前,,26.326920,127.902507,S4353,,,
S3590,,西屋慶名,,26.325261,127.904600,S3590,,,
S2967,,屋慶名,,26.323483,127.907326,S2967,,,
S4357,,与那城郵便局前,,26.322721,127.909006,S4357,,,
S4027,,東屋慶名,,26.322038,127.910673,S4027,,,
S4219,,平田原,,26.318271,127.909206,S4219,,,
S4384,,饒辺,,26.313955,127.910007,S4384,,,
S4225,,平敷屋,,26.308956,127.912073,S4225,,,
S3616,,西中原,,26.310555,127.908174,S3616,,,
S4088,,内間入口,,26.315388,127.900524,S4088,,,
S4216,,平安名,,26.315855,127.897441,S4216,,,
S2795,,安武堂,,26.320904,127.893014,S2795,,,
S4349,,与那城（県道10号）,,26.324937,127.890641,S4349,,,
S3197,,県営与那城団地入口,,26.326653,127.887341,S3197,,,
S3594,,西原,,26.328770,127.884975,S3594,,,
S3445,,照間,,26.335902,127.881875,S3445,,,
S3465,,上南風原,,26.340285,127.879408,S3465,,,
S4116,,南風原入口,,26.343901,127.875808,S4116,,,
S3551,,水井原,,26.345034,127.872442,S3551,,,
S3691,,川田入口,,26.347217,127.870458,S3691,,,
S3713,,大田入口,,26.350634,127.870025,S3713,,,
S3161,,具志川,,26.356216,127.869641,S3161,,,
S3155,,金武湾,,26.363316,127.868758,S3155,,,
S4039,,東田場,,26.365765,127.867524,S4039,,,
S4011,,田場,,26.370431,127.862241,S4011,,,
S3707,,前原高校前,,26.371731,127.860641,S3707,,,
S3621,,西田場,,26.373748,127.857142,S3621,,,
S3937,,中部病院前,,26.356433,127.834378,S3937,,,
S3667,,赤道十字路,,26.354900,127.831399,S3667,,,
S3247,,江洲,,26.350850,127.826945,S3247,,,
S4168,,美原一丁目,,26.347800,127.824112,S4168,,,
S4172,,美里入口,,26.345450,127.821912,S4172,,,
S3082,,吉原入口,,26.342350,127.819146,S3082,,,
S2721,,コザ,,26.338765,127.814895,S2721,,,
S2778,,安慶田,,26.338151,127.811747,S2778,,,
S2988,,嘉間良,,26.337484,127.807414,S2988,,,
S2458,,胡屋,,26.335701,127.800598,S2458,,,
S3912,,中の町,,26.333218,127.798748,S3912,,,
S2904,,園田,,26.330151,127.795949,S2904,,,
S3411,,諸見,,26.328085,127.794082,S3411,,,
S3356,,山里,,26.324319,127.793149,S3356,,,
S4154,,比嘉,,26.321852,127.793449,S4154,,,
S2743,,プラザハウス前,,26.319519,127.793233,S2743,,,
S4156,,比嘉西原,,26.315669,127.793416,S4156,,,
S2964,,屋宜原,,26.310503,127.786950,S2964,,,
S3757,,大平,北中城村,26.308703,127.782951,S3757,,,
S3555,,瑞慶覧,,26.304937,127.779601,S3555,,,
S4203,,武宇留原,,26.299835,127.780602,S4203,,,
S3647,,石平,,26.297489,127.780743,S3647,,,
S4197,,普天間,,26.292788,127.777902,S4197,,,
S4321,,野嵩,,26.284523,127.776436,S4321,,,
S3079,,宜野湾市役所前,,26.280323,127.778319,S3079,,,
S3450,,上原,,26.276623,127.777286,S3450,,,
S3919,,中原,,26.274714,127.774368,S3919,,,
S3662,,赤道,,26.270591,127.769954,S3662,,,
S2771,,愛知,,26.268191,127.767437,S2771,,,
S3071,,宜野湾,,26.265574,127.764671,S3071,,,
S3970,,長田,,26.263278,127.762264,S3970,,,
S3359,,志真志,,26.260191,127.759372,S3359,,,
S3931,,中部商業高校前,,26.256939,127.754814,S3931,,,
S3010,,我如古,,26.256508,127.752322,S3010,,,
S3308,,佐真下,,26.257973,127.749243,S3308,,,
S3506,,真栄原,,26.260851,127.743510,S3506,,,
S3859,,第二真栄原,,26.261565,127.742370,S3859,,,
S3457,,上大謝名,,26.264388,127.739245,S3457,,,
S3928,,中大謝名,,26.266292,127.736889,S3928,,,
S3731,,大謝名,,26.268228,127.733696,S3731,,,
S4434,,牧志公園前,,26.218054,127.692029,S4434,,,
S4432,,美栄橋駅前,,26.219187,127.684506,S4432,,,
S4430,,久茂地公民館前,,26.216266,127.681176,S4430,,,
S2969,,屋慶名バスターミナル,,26.327604,127.905573,S2969,,,
S4351,,与那城（県道８号）,,26.324204,127.890824,S4351,,,
S3226,,胡屋,,26.335701,127.800598,S3226,,,
S4199,,普天間市場入口,,26.288739,127.777852,S4199,,,
S2720,,コザ,,26.338751,127.815830,S2720,,,
S3437,,照屋,,26.336601,127.817013,S3437,,,
S2762,,わしみ橋,,26.336168,127.819346,S2762,,,
S3122,,宮里小学校前,,26.339051,127.821279,S3122,,,
S2986,,加納原,,26.341684,127.822713,S2986,,,
S3124,,宮里中学校前,,26.343350,127.825662,S3124,,,
S3943,,仲原,,26.344917,127.828679,S3943,,,
S3248,,江洲公民館前,,26.346584,127.832545,S3248,,,
S3921,,中原小学校入口,,26.349300,127.837061,S3921,,,
S3325,,坂中原,,26.352083,127.841477,S3325,,,
S3164,,具志川高校前,,26.353495,127.845177,S3164,,,
S2706,,うるま市民芸術劇場前,,26.356599,127.848893,S2706,,,
S3166,,具志川中央公民館前,,26.359549,127.850643,S3166,,,
S3966,,仲嶺ハイツ入口,,26.363782,127.853259,S3966,,,
S2933,,沖縄高等特別支援学校前,,26.366215,127.855959,S2933,,,
S3162,,具志川バスターミナル入口,,26.370231,127.859608,S3162,,,
S3163,,具志川バスターミナル入口,,26.370381,127.859708,S3163,,,
S2934,,沖縄高等特別支援学校前,,26.366182,127.856175,S2934,,,
S3967,,仲嶺ハイツ入口,,26.363715,127.853376,S3967,,,
S3167,,具志川中央公民館前,,26.359482,127.850776,S3167,,,
S2707,,うるま市民芸術劇場前,,26.356566,127.849060,S2707,,,
S3165,,具志川高校前,,26.353266,127.845060,S3165,,,
S3326,,坂中原,,26.351950,127.841860,S3326,,,
S3922,,中原小学校入口,,26.349133,127.837061,S3922,,,
S3249,,江洲公民館前,,26.345984,127.831712,S3249,,,
S3944,,仲原,,26.344717,127.828595,S3944,,,
S3125,,宮里中学校前,,26.343217,127.825729,S3125,,,
S2987,,加納原,,26.341584,127.822813,S2987,,,
S3123,,宮里小学校前,,26.338601,127.821229,S3123,,,
S2763,,わしみ橋,,26.335918,127.819330,S2763,,,
S3438,,照屋,,26.336484,127.816863,S3438,,,
S1367,,読谷バスターミナル,443b5f80-4428-4504-a4b2-149f3fde930f,26.419291,127.732600,S1367,,,
S1374,,那覇バスターミナル,5266b308-87ad-412a-9a93-381d763037e3,26.206900,127.678517,S1374,,,
S3454,,上泉,,26.210606,127.679082,S3454,,,
S1951,,県庁南口,,26.210847,127.681303,S1951,,,
S4075,,那覇高校前,,26.210823,127.684162,S4075,,,
S3021,,開南,,26.211487,127.687982,S3021,,,
S2378,,与儀十字路,,26.207146,127.691168,S2378,,,
S1998,,与儀小学校前,,26.204396,127.689680,S1998,,,
S2283,,農協会館前,,26.202830,127.688563,S2283,,,
S3284,,国場,,26.194829,127.705608,S3284,,,
S3941,,仲井真,,26.191763,127.707588,S3941,,,
S4377,,翔南製糖前,,26.189665,127.708896,S4377,,,
S3978,,津嘉山,,26.187274,127.710409,S3978,,,
S3678,,川下原,,26.183699,127.713129,S3678,,,
S4060,,徳洲会病院入口,,26.181140,127.715730,S4060,,,
S3341,,山川,,26.178321,127.718306,S3341,,,
S3023,,外間,,26.176269,127.718710,S3023,,,
S3746,,大倉ハイツ前,,26.173694,127.719211,S3746,,,
S4105,,南部商業高校前,,26.170291,127.721727,S4105,,,
S4323,,友寄,,26.168202,127.720568,S4323,,,
S3192,,県営屋宜原団地入口,,26.163266,127.724064,S3192,,,
S2817,,伊覇,,26.159301,127.722252,S2817,,,
S2819,,伊覇公民館前,,26.156192,127.721445,S2819,,,
S4040,,東風平,,26.154519,127.721133,S4040,,,
S4044,,東風平中学校前,,26.151124,127.722863,S4044,,,
S3315,,座喜味,,26.148211,127.724770,S3315,,,
S3318,,座喜味入口,,26.145702,127.725924,S3318,,,
S4104,,南部工業高校前,,26.138466,127.729318,S4104,,,
S4190,,富盛,,26.133405,127.730730,S4190,,,
S3886,,第二富盛,,26.133062,127.726123,S3886,,,
S3562,,世名城,,26.135184,127.717202,S3562,,,
S3273,,高良,,26.134752,127.711194,S3273,,,
S3473,,上与座,,26.134222,127.699798,S3473,,,
S1646,,与座,,26.136670,127.698432,S1646,,,
S3769,,大里,,26.135862,127.693960,S3769,,,
S3279,,高嶺入口,,26.133919,127.685584,S3279,,,
S3441,,照屋入口,,26.130731,127.682423,S3441,,,
S3435,,照屋,,26.129646,127.679579,S3435,,,
S3377,,糸満小学校前,,26.130208,127.675093,S3377,,,
S3495,,新島,,26.129705,127.673211,S3495,,,
S3371,,糸満ロータリー,,26.129253,127.670290,S3371,,,
S3373,,糸満市場入口,,26.129240,127.668187,S3373,,,
S3375,,糸満市役所入口,,26.129037,127.664956,S3375,,,
S3367,,糸満バスターミナル,,26.128787,127.663402,S3367,,,
S3366,,糸満バスターミナル,,26.128770,127.663386,S3366,,,
S3374,,糸満市役所入口,,26.129106,127.664927,S3374,,,
S3372,,糸満市場入口,,26.129305,127.667849,S3372,,,
S3370,,糸満ロータリー,,26.129415,127.670185,S3370,,,
S3494,,新島,,26.129674,127.672822,S3494,,,
S3376,,糸満小学校前,,26.130278,127.675010,S3376,,,
S3434,,照屋,,26.129709,127.679475,S3434,,,
S3440,,照屋入口,,26.130682,127.682285,S3440,,,
S3278,,高嶺入口,,26.133696,127.685416,S3278,,,
S3768,,大里,,26.135954,127.694011,S3768,,,
S1647,,与座,,26.136754,127.698516,S1647,,,
S3472,,上与座,,26.134357,127.700055,S3472,,,
S3272,,高良,,26.134817,127.711132,S3272,,,
S3563,,世名城,,26.135265,127.716598,S3563,,,
S3885,,第二富盛,,26.133155,127.726041,S3885,,,
S4189,,富盛,,26.134159,127.730965,S4189,,,
S4103,,南部工業高校前,,26.137554,127.729530,S4103,,,
S3319,,座喜味入口,,26.145345,127.725993,S3319,,,
S3314,,座喜味,,26.148659,127.724434,S3314,,,
S4043,,東風平中学校前,,26.151477,127.722684,S4043,,,
S4042,,東風平,,26.154133,127.720877,S4042,,,
S2820,,伊覇公民館前,,26.156364,127.721259,S2820,,,
S2818,,伊覇,,26.159240,127.721992,S2818,,,
S3193,,県営屋宜原団地入口,,26.163197,127.723702,S3193,,,
S4324,,友寄,,26.168421,127.720480,S4324,,,
S4106,,南部商業高校前,,26.170811,127.721837,S4106,,,
S3747,,大倉ハイツ前,,26.174297,127.719008,S3747,,,
S3024,,外間,,26.176322,127.718611,S3024,,,
S3342,,山川,,26.179407,127.717465,S3342,,,
S4061,,徳洲会病院入口,,26.181056,127.715647,S4061,,,
S3679,,川下原,,26.183708,127.712953,S3679,,,
S3979,,津嘉山,,26.188266,127.709675,S3979,,,
S4378,,翔南製糖前,,26.189582,127.708842,S4378,,,
S3942,,仲井真,,26.191745,127.707437,S3942,,,
S2427,,農協会館前,,26.202796,127.688197,S2427,,,
S2107,,与儀小学校前,,26.204563,127.689563,S2107,,,
S2039,,与儀十字路,,26.206663,127.690563,S2039,,,
S3022,,開南,,26.211386,127.688110,S3022,,,
S4076,,那覇高校前,,26.210669,127.684484,S4076,,,
S2139,,県庁南口,,26.210722,127.681056,S2139,,,
S3455,,上泉,,26.210486,127.679130,S3455,,,
S3660,,赤十字病院前,,26.207713,127.692296,S3660,,,
S512,,県立看護大学前,b8dcb8f4-d806-484e-aa7b-42b2025a7be0,26.206281,127.695625,S512,,,
S3536,,真和志小学校前,,26.205846,127.698496,S3536,,,
S366,,寄宮中学校前,73399caa-f8c1-4218-8c1f-ce1ba3e6b678,26.203324,127.699897,S366,,,
S242,,沖縄大学前,6d1fa842-ef09-4fab-961e-fe9f3db3e5b9,26.200775,127.700421,S242,,,
S4409,,沖大アネックス前,,26.198444,127.702487,S4409,,,
S4411,,第二東風平,,26.150592,127.715982,S4411,,,
S3362,,志多伯入口,,26.150024,127.709916,S3362,,,
S4415,,小城入口,,26.150586,127.702484,S4415,,,
S4417,,当銘,,26.149739,127.700415,S4417,,,
S4419,,賀数,,26.146830,127.692640,S4419,,,
S4421,,座波,,26.143890,127.689565,S4421,,,
S4423,,仙原,,26.139734,127.688349,S4423,,,
S3677,,仙原,,26.139903,127.688266,S3677,,,
S3322,,座波,,26.143781,127.689275,S3322,,,
S4420,,賀数,,26.146890,127.692600,S4420,,,
S3591,,西河,,26.149752,127.699648,S3591,,,
S4418,,当銘,,26.149765,127.700914,S4418,,,
S4416,,小城入口,,26.150992,127.702582,S4416,,,
S3361,,志多伯,,26.150752,127.707548,S3361,,,
S3363,,志多伯入口,,26.150186,127.709664,S3363,,,
S4412,,第二東風平,,26.150796,127.716232,S4412,,,
S3286,,国場,,26.197214,127.703412,S3286,,,
S4410,,沖大アネックス前,,26.198550,127.702124,S4410,,,
S2937,,沖縄大学前,,26.201047,127.700263,S2937,,,
S3061,,寄宮中学校前,,26.203630,127.699562,S3061,,,
S3537,,真和志小学校前,,26.205696,127.698546,S3537,,,
S3207,,県立看護大学前,,26.205996,127.695896,S3207,,,
S3659,,赤十字病院前,,26.207496,127.692213,S3659,,,
S4342,,与座,,26.137323,127.698793,S4342,,,
S4253,,豊原,,26.143870,127.703148,S4253,,,
S4046,,東風平入口,,26.155149,127.721803,S4046,,,
S4245,,保健センター前,,26.156930,127.725704,S4245,,,
S2965,,屋宜原,,26.159585,127.730245,S2965,,,
S2857,,稲嶺,,26.165018,127.734695,S2857,,,
S2861,,稲嶺入口,,26.167668,127.737161,S2861,,,
S2859,,稲嶺十字路,,26.169901,127.740311,S2859,,,
S3257,,高宮城,,26.172367,127.743994,S3257,,,
S4100,,南小学校前,,26.173800,127.745910,S4100,,,
S3955,,仲程,,26.177000,127.747710,S3955,,,
S4676,,平良入口,,26.180859,127.747375,S4676,,,
S3219,,古堅入口,,26.185249,127.747859,S3219,,,
S3215,,古堅,,26.188482,127.746226,S3215,,,
S4021,,島袋,,26.189782,127.745709,S4021,,,
S4207,,福原,,26.192915,127.745142,S4207,,,
S4371,,嶺井入口,,26.196448,127.746776,S4371,,,
S3773,,大里入口,,26.199598,127.749608,S3773,,,
S4345,,与那原,,26.201614,127.753541,S4345,,,
S4347,,与那原町役場入口,,26.200831,127.756774,S4347,,,
S3893,,第二与那原,,26.200148,127.759008,S3893,,,
S3134,,教会前,,26.200031,127.761291,S3134,,,
S3907,,知念高校前,,26.199631,127.764657,S3907,,,
S4272,,北板良敷,,26.197865,127.766607,S4272,,,
S4150,,板良敷,,26.196782,127.767690,S4150,,,
S4101,,南板良敷,,26.191849,127.769324,S4101,,,
S4053,,当添,,26.188816,127.772074,S4053,,,
S4727,,馬天入口,,26.183617,127.774403,S4727,,,
S4725,,馬天,,26.182496,127.775127,S4725,,,
S4733,,浜端,,26.180577,127.774858,S4733,,,
S4655,,新開,,26.176967,127.773903,S4655,,,
S4661,,新里入口,,26.173936,127.773590,S4661,,,
S3496,,新里,,26.171618,127.772675,S3496,,,
S4716,,南城市役所,,26.163703,127.769955,S4716,,,
S4657,,新里,,26.171771,127.772661,S4657,,,
S4660,,新里入口,,26.173909,127.773508,S4660,,,
S4656,,新開,,26.177209,127.773863,S4656,,,
S4734,,浜端,,26.180690,127.774816,S4734,,,
S4132,,馬天,,26.181289,127.774951,S4132,,,
S4728,,馬天入口,,26.183678,127.774259,S4728,,,
S4054,,当添,,26.188916,127.771874,S4054,,,
S4102,,南板良敷,,26.192066,127.768941,S4102,,,
S4151,,板良敷,,26.196348,127.767824,S4151,,,
S4273,,北板良敷,,26.198232,127.766057,S4273,,,
S3908,,知念高校前,,26.199698,127.764324,S3908,,,
S3135,,教会前,,26.199931,127.762307,S3135,,,
S3894,,第二与那原,,26.200031,127.759108,S3894,,,
S4348,,与那原町役場入口,,26.200714,127.756775,S4348,,,
S4346,,与那原,,26.201464,127.753558,S4346,,,
S3772,,大里入口,,26.199881,127.750192,S3772,,,
S4370,,嶺井入口,,26.196398,127.746876,S4370,,,
S4745,,福原,,26.193348,127.745342,S4745,,,
S4020,,島袋,,26.189432,127.745993,S4020,,,
S3214,,古堅,,26.187916,127.746559,S3214,,,
S3218,,古堅入口,,26.184849,127.748326,S3218,,,
S4675,,平良入口,,26.180800,127.747500,S4675,,,
S4705,,仲程,,26.176200,127.747600,S4705,,,
S4099,,南小学校前,,26.173850,127.746110,S4099,,,
S3256,,高宮城,,26.171984,127.743444,S3256,,,
S4571,,稲嶺十字路,,26.168700,127.739311,S4571,,,
S4569,,稲嶺入口,,26.167398,127.737015,S4569,,,
S2854,,稲嶺,,26.165201,127.735111,S2854,,,
S2963,,屋宜原,,26.159329,127.730100,S2963,,,
S4244,,保健センター前,,26.156635,127.725320,S4244,,,
S4045,,東風平入口,,26.155071,127.722002,S4045,,,
S4252,,豊原,,26.144053,127.703415,S4252,,,
S4341,,与座,,26.136705,127.698419,S4341,,,
S2773,,旭橋・那覇バスターミナル,,26.210912,127.676781,S2773,,,
S2423,,一日橋,,26.198005,127.715968,S2423,,,
S2863,,印刷団地前,,26.195498,127.721328,S2863,,,
S3191,,兼城十字路,,26.195631,127.727477,S3191,,,
S4050,,当間原,,26.197331,127.732477,S4050,,,
S3115,,宮平,,26.198764,127.736493,S3115,,,
S4108,,南部保健所前,,26.200058,127.738399,S4108,,,
S3821,,第一与那覇,,26.200798,127.742659,S3821,,,
S4359,,与那覇,,26.200298,127.746325,S4359,,,
S2234,,大里入口,,26.199950,127.749292,S2234,,,
S4131,,馬天,,26.181263,127.775075,S4131,,,
S3505,,新里入口,,26.173851,127.773458,S3505,,,
S4358,,与那覇,,26.200181,127.746275,S4358,,,
S3820,,第一与那覇,,26.200598,127.743992,S3820,,,
S4107,,南部保健所前,,26.200281,127.740076,S4107,,,
S3114,,宮平,,26.198614,127.736460,S3114,,,
S4049,,当間原,,26.197364,127.732743,S4049,,,
S3190,,兼城十字路,,26.195515,127.727544,S3190,,,
S2862,,印刷団地前,,26.195248,127.722328,S2862,,,
S2846,,一日橋,,26.197897,127.715861,S2846,,,
S2847,,一日橋,,26.198014,127.716061,S2847,,,
S4665,,新里坂,,26.163154,127.773800,S4665,,,
S4647,,下親慶原,,26.161438,127.775297,S4647,,,
S4664,,新里坂,,26.163132,127.773733,S4664,,,
S3195,,県営大山住宅前,,26.281339,127.741605,S3195,,,
S4372,,老人ホ－ム愛誠園前,,26.287172,127.750404,S4372,,,
S3358,,市営伊佐住宅前,,26.289222,127.753771,S3358,,,
S3078,,宜野湾市農協前,,26.289250,127.755889,S3078,,,
S5899,,北谷ゲートウェイ,,26.314291,127.758541,S5899,,,1
S4262,,北谷町役場,,26.320200,127.763260,S4262,,,
S4062,,読谷バスターミナル,,26.419291,127.732600,S4062,,,
S3572,,瀬名波,,26.421313,127.731526,S3572,,,
S3692,,川平,,26.424401,127.730589,S3692,,,
S3694,,船地原,,26.422453,127.735560,S3694,,,
S3972,,長浜,,26.422170,127.737967,S3972,,,
S2866,,宇加地,,26.423471,127.745086,S2866,,,
S4337,,与久田,,26.426622,127.750286,S4337,,,
S4193,,富里原,,26.429900,127.753982,S4193,,,
S4173,,美留,,26.431700,127.758489,S4173,,,
S2907,,塩屋,,26.436909,127.764340,S2907,,,
S3508,,真栄田,,26.439227,127.770009,S3508,,,
S3854,,第二山田,,26.437386,127.775342,S3854,,,
S3345,,山田,,26.434670,127.776899,S3345,,,
S3870,,第二団地前,,26.426918,127.807477,S3870,,,
S2994,,嘉手苅,,26.420607,127.813760,S2994,,,
S2821,,伊波,,26.418967,127.817960,S2821,,,
S3339,,山城入口,,26.418120,127.818505,S3339,,,
S3632,,石川高校前,,26.415973,127.821312,S3632,,,
S3704,,前原,,26.412846,127.824384,S3704,,,
S4035,,東山入口,,26.435424,127.838140,S4035,,,
S4030,,東恩納,,26.411108,127.826438,S4030,,,
S3705,,前原,,26.413900,127.823414,S3705,,,
S3633,,石川高校前,,26.415902,127.821256,S3633,,,
S3340,,山城入口,,26.417808,127.818748,S3340,,,
S2822,,伊波,,26.418652,127.818050,S2822,,,
S2995,,嘉手苅,,26.421058,127.812897,S2995,,,
S3872,,第二団地前,,26.426788,127.807421,S3872,,,
S3346,,山田,,26.434619,127.776819,S3346,,,
S3855,,第二山田,,26.437298,127.775308,S3855,,,
S3509,,真栄田,,26.439097,127.769472,S3509,,,
S2908,,塩屋,,26.436655,127.764065,S2908,,,
S4174,,美留,,26.431862,127.759017,S4174,,,
S4194,,富里原,,26.429782,127.754073,S4194,,,
S4338,,与久田,,26.426824,127.750923,S4338,,,
S2867,,宇加地,,26.423701,127.745461,S2867,,,
S3973,,長浜,,26.422098,127.738409,S3973,,,
S3695,,船地原,,26.422483,127.734895,S3695,,,
S3693,,川平,,26.424479,127.730812,S3693,,,
S3573,,瀬名波,,26.421615,127.731480,S3573,,,
S4063,,読谷バスターミナル,,26.419291,127.732616,S4063,,,
S2261,,那覇バスターミナル,,26.211295,127.676614,S2261,,,5
S3645,,石平,,26.296371,127.781368,S3645,,,
S3782,,第一安谷屋,,26.296121,127.783368,S3782,,,
S2791,,安谷屋,,26.297838,127.786668,S2791,,,
S3235,,後原,,26.300354,127.789601,S3235,,,
S4269,,北中城村役場前,,26.300477,127.793655,S4269,,,
S4267,,北中城小学校入口,,26.300466,127.794981,S4267,,,
S3045,,喜舎場,,26.301188,127.797579,S3045,,,
S3948,,仲順,,26.301221,127.799250,S3948,,,
S4016,,渡口,,26.302971,127.808382,S4016,,,
S4264,,北中城高校入口,,26.305204,127.811432,S4264,,,
S2280,,第一与儀,,26.305971,127.812148,S2280,,,
S2407,,与儀,,26.309537,127.814681,S2407,,,
S2392,,県総合運動公園北口,,26.312287,127.816864,S2392,,,
S2152,,比屋根,,26.315920,127.818697,S2152,,,
S2218,,高原南,,26.319270,127.821164,S2218,,,
S2258,,高原,,26.324886,127.822713,S2258,,,
S2722,,コザ高校前,,26.333085,127.820130,S2722,,,
S3442,,照屋入口,,26.334768,127.817847,S3442,,,
S3940,,中部病院入口,,26.352938,127.835084,S3940,,,
S3853,,第二宮里,,26.350433,127.836994,S3853,,,
S3267,,高江洲,,26.349100,127.845844,S3267,,,
S3265,,高江洲中学校前,,26.349084,127.850377,S3265,,,
S4255,,豊原,,26.349000,127.852876,S4255,,,
S3914,,中塩屋,,26.349034,127.857793,S3914,,,
S2910,,塩屋,,26.349284,127.859409,S2910,,,
S4344,,与那原,,26.348984,127.863675,S4344,,,
S3689,,川田,,26.344551,127.867759,S3689,,,
S4009,,田佐原,,26.342618,127.869309,S4009,,,
S4112,,南風原,,26.340418,127.871592,S4112,,,
S4098,,南原小学校前,,26.337674,127.873501,S4098,,,
S4182,,浜屋入口,,26.334152,127.875059,S4182,,,
S3420,,勝連団地前,,26.332652,127.878975,S3420,,,
S3418,,勝連城跡前,,26.331236,127.880625,S3418,,,
S3703,,前原,,26.326746,127.892643,S3703,,,
S2871,,宇舎波川,,26.326873,127.898519,S2871,,,
S2870,,宇舎波川,,26.326703,127.898840,S2870,,,
S3702,,前原,,26.327037,127.893191,S3702,,,
S3417,,勝連城跡前,,26.331036,127.880658,S3417,,,
S3419,,勝連団地前,,26.332702,127.878625,S3419,,,
S4181,,浜屋入口,,26.334252,127.874925,S4181,,,
S4097,,南原小学校前,,26.337968,127.873042,S4097,,,
S4109,,南風原,,26.341322,127.870595,S4109,,,
S4008,,田佐原,,26.342951,127.868875,S4008,,,
S3686,,川田,,26.345568,127.866775,S3686,,,
S4343,,与那原,,26.348534,127.863942,S4343,,,
S2905,,塩屋,,26.349167,127.859326,S2905,,,
S3913,,中塩屋,,26.348917,127.857909,S3913,,,
S4250,,豊原,,26.348934,127.854493,S4250,,,
S3264,,高江洲中学校前,,26.349267,127.848960,S3264,,,
S3266,,高江洲,,26.349183,127.846760,S3266,,,
S3852,,第二宮里,,26.350333,127.836928,S3852,,,
S3939,,中部病院入口,,26.352450,127.835094,S3939,,,
S3664,,赤道十字路,,26.354916,127.832444,S3664,,,
S3443,,照屋入口,,26.334485,127.818330,S3443,,,
S2723,,コザ高校前,,26.333463,127.819909,S2723,,,
S3259,,高原,,26.324869,127.822763,S3259,,,
S3261,,高原南,,26.320219,127.821547,S3261,,,
S4153,,比屋根,,26.314270,127.819031,S4153,,,
S3199,,県総合運動公園北口,,26.312504,127.817481,S3199,,,
S4332,,与儀,,26.309604,127.814981,S4332,,,
S3819,,第一与儀,,26.306587,127.812848,S3819,,,
S4265,,北中城高校入口,,26.304804,127.811249,S4265,,,
S4017,,渡口,,26.302854,127.808132,S4017,,,
S3947,,仲順,,26.301121,127.799066,S3947,,,
S3044,,喜舎場,,26.300738,127.796433,S3044,,,
S4266,,北中城小学校入口,,26.300388,127.795083,S4266,,,
S4268,,北中城村役場前,,26.300321,127.793234,S4268,,,
S3234,,後原,,26.299554,127.788884,S3234,,,
S2790,,安谷屋,,26.297638,127.786718,S2790,,,
S3781,,第一安谷屋,,26.295871,127.783735,S3781,,,
S3644,,石平,,26.296055,127.781651,S3644,,,
S3818,,第一与儀（沖縄市向け）,,26.305971,127.812148,S3818,,,
S4331,,与儀（沖縄市向け）,,26.309537,127.814681,S4331,,,
S3198,,県総合運動公園北口（沖縄市向け）,,26.312137,127.816764,S3198,,,
S4152,,比屋根,,26.315920,127.818697,S4152,,,
S3260,,高原南（沖縄市向け）,,26.319270,127.821080,S3260,,,
S3258,,高原（沖縄市向け）,,26.324886,127.822663,S3258,,,
S3668,,赤道十字路,,26.354928,127.832678,S3668,,,
S5386,,サンエーパルコシティ前,,26.262847,127.697788,S5386,,,
S5387,,サンエーパルコシティ前,,26.262659,127.697958,S5387,,,
S1601,,名護バスターミナル,4a926423-3ffd-422f-9267-e732e901d912,26.596442,127.965422,S1601,,,
S3188,,兼城十字路,,26.194665,127.727527,S3188,,,
S4114,,南風原町役場前,,26.192048,127.728611,S4114,,,
S1515,,福祉センター入口,d8cb37c2-01b8-4dad-8faf-1d7cb2908563,26.189149,127.729744,S1515,,,
S3439,,照屋,,26.186865,127.727378,S3439,,,
S3041,,喜屋武,,26.184616,127.731711,S3041,,,
S3696,,銭又,,26.182399,127.737644,S3696,,,
S4047,,当間,,26.180305,127.742667,S4047,,,
S3956,,仲程入口,,26.177333,127.745043,S3956,,,
S3953,,仲程,,26.177034,127.747093,S3953,,,
S2717,,グリーンタウン入口,,26.170084,127.741794,S2717,,,
S3613,,西謝原,,26.169518,127.742960,S3613,,,
S4246,,保地原,,26.169201,127.746543,S4246,,,
S3770,,大里グリーンタウン,,26.168134,127.748610,S3770,,,
S3738,,大城入口,,26.164468,127.755626,S3738,,,
S3736,,大城,,26.163302,127.758709,S3736,,,
S3564,,世利田,,26.156719,127.772175,S3564,,,
S3059,,喜良原,,26.152920,127.773775,S3059,,,
S4670,,第二喜良原,,26.152491,127.776875,S4670,,,
S4631,,小羊保育園前,,26.154833,127.780589,S4631,,,
S3543,,親慶原入口,,26.156370,127.780191,S3543,,,
S2984,,下親慶原,,26.161219,127.775741,S2984,,,
S3542,,親慶原入口,,26.157020,127.779941,S3542,,,
S3060,,喜良原,,26.152903,127.773709,S3060,,,
S4669,,世利田,,26.155680,127.772370,S4669,,,
S3737,,大城,,26.163119,127.759326,S3737,,,
S3739,,大城入口,,26.164652,127.755360,S3739,,,
S3771,,大里グリーンタウン,,26.167985,127.748910,S3771,,,
S4247,,保地原,,26.169718,127.745327,S4247,,,
S3614,,西謝原,,26.169518,127.743077,S3614,,,
S2718,,グリーンタウン入口,,26.170434,127.741177,S2718,,,
S3954,,仲程,,26.176950,127.747126,S3954,,,
S3957,,仲程入口,,26.177300,127.744777,S3957,,,
S4048,,当間,,26.180133,127.742560,S4048,,,
S3697,,銭又,,26.181966,127.738594,S3697,,,
S3040,,喜屋武,,26.184832,127.730577,S3040,,,
S3436,,照屋,,26.186982,127.727344,S3436,,,
S4210,,福祉センター入口,,26.189084,127.729789,S4210,,,
S4113,,南風原町役場前,,26.191498,127.728927,S4113,,,
S3189,,兼城十字路,,26.194965,127.727194,S3189,,,
S5254,,サンエーパルコシティ,,26.262919,127.698946,S5254,,,
S5385,,卸商業団地前,,26.253167,127.690806,S5385,,,
S5383,,国立劇場前,,26.245306,127.688145,S5383,,,
S5388,,勢理客,,26.243810,127.690531,S5388,,,
S4445,,バスターミナル前,,26.212500,127.678007,S4445,,,
S4446,,バスターミナル前,,26.212155,127.677182,S4446,,,
S5382,,国立劇場前,,26.245162,127.688219,S5382,,,
S5384,,卸商業団地前,,26.254406,127.690892,S5384,,,
S3487,,新城,,26.289189,127.769453,S3487,,,
S4196,,普天間,,26.291735,127.776254,S4196,,,
S3090,,久志入口,,26.514735,128.003906,S3090,,,
S3092,,久志売店前,,26.514669,128.006456,S3092,,,
S3084,,久志,,26.515390,128.008368,S3084,,,
S4254,,豊原,,26.519409,128.022218,S4254,,,
S3096,,久辺局前,,26.521185,128.021938,S3096,,,
S3095,,久辺局前,,26.521002,128.022138,S3095,,,
S4251,,豊原,,26.519335,128.022204,S4251,,,
S3083,,久志,,26.515402,128.008489,S3083,,,
S3091,,久志売店前,,26.514669,128.006689,S3091,,,
S3088,,久志入口,,26.514702,128.003923,S3088,,,
S3486,,新城,,26.288639,127.768719,S3486,,,
S3850,,第二喜良原,,26.152785,127.776645,S3850,,,
S4632,,小羊保育園前,,26.155098,127.780495,S4632,,,
S2985,,下親慶原,,26.161469,127.775208,S2985,,,
S3291,,国立劇場おきなわ,,26.246053,127.689546,S3291,,,
S3290,,結の街,,26.246001,127.689543,S3290,,,
S5208,,那覇空港国内線旅客ターミナル,,26.205973,127.651466,S5208,,,12
S5210,,那覇空港国際線旅客ターミナル,,26.210753,127.651056,S5210,,,2
S5214,,ムーンオーシャン宜野湾ホテル＆レジデンス,,26.273015,127.727906,S5214,,,
S5215,,ラグナガーデンホテル,,26.280329,127.738107,S5215,,,
S5218,,ラ・ジェント・ホテル沖縄北谷,,26.320634,127.755085,S5218,,,
S5220,,ヒルトン沖縄北谷リゾート,,26.318570,127.755074,S5220,,,
S5255,,レクー沖縄北谷スパ＆リゾート,,26.317657,127.754903,S5255,,,
S5221,,ダブルツリーbyヒルトン沖縄北谷リゾート,,26.317903,127.753808,S5221,,,
S3288,,国内線旅客ターミナル前,,26.206479,127.651216,S3288,,,
S3281,,国際線旅客ターミナル前,,26.207670,127.651150,S3281,,,3F
S5213,,旭橋,,26.212343,127.675531,S5213,,,
S1997,,旭橋・那覇バスターミナル,,26.210868,127.676704,S1997,,,11
S5222,,ホテルムーンビーチ,,26.450118,127.802874,S5222,,,
S5223,,ルネッサンスリゾートオキナワ,,26.435191,127.787694,S5223,,,
S5438,,ベストウエスタン恩納,,26.431651,127.758413,S5438,,,
S5224,,グランドメルキュール沖縄残波岬リゾート,,26.434951,127.718634,S5224,,,
S5225,,ホテル日航アリビラ,,26.415105,127.715897,S5225,,,
S5308,,星のや沖縄,,26.417775,127.714731,S5308,,,
S2774,,旭橋・那覇バスターミナル,,26.210897,127.676153,S2774,,,
S5227,,"ホテルモントレ沖縄 スパ＆リゾート",,26.453572,127.806153,S5227,,,
S5228,,"カフー リゾート フチャク コンド・ホテル",,26.457430,127.811542,S5228,,,
S5229,,シェラトン沖縄サンマリーナリゾート,,26.460843,127.812003,S5229,,,
S5230,,"リザン シーパークホテル谷茶ベイ",,26.462996,127.816579,S5230,,,
S5231,,ANAインターコンチネンタル万座ビーチリゾート,,26.508318,127.858239,S5231,,,
S5232,,"ハイアット リージェンシー 瀬良垣アイランド 沖縄",,26.511660,127.869304,S5232,,,
S5245,,ハレクラニ沖縄,,26.526573,127.922755,S5245,,,
S5233,,沖縄かりゆしビーチリゾート・オーシャンスパ,,26.525712,127.930146,S5233,,,
S5234,,ザ・ブセナテラス,,26.540592,127.935971,S5234,,,
S5235,,"オリエンタルホテル沖縄 リゾート ＆ スパ前バス乗り場",,26.530082,127.933986,S5235,,,
S5237,,かねひで喜瀬ビーチパレス,,26.536191,127.945287,S5237,,,
S5236,,ザ・リッツ・カールトン沖縄,,26.527870,127.939268,S5236,,,
S5241,,記念公園前,,26.690920,127.879594,S5241,,,
S5243,,センチュリオンホテルリゾート　ヴィンテージ沖縄美ら海,,26.694916,127.879603,S5243,,,
S5244,,ホテルオリオンモトブリゾート＆スパ,,26.698617,127.879769,S5244,,,
S5242,,記念公園前,,26.690146,127.879327,S5242,,,
S3282,,国際線旅客ターミナル前,,26.210688,127.651012,S3282,,,
S2744,,フリーゾーン前,,26.211328,127.658965,S2744,,,
S3244,,幸地,,26.239443,127.741774,S3244,,,
S4368,,琉大入口,,26.255736,127.763584,S4368,,,
S3923,,中城,,26.276140,127.780752,S3923,,,
S3043,,喜舎場,,26.302321,127.791617,S3043,,,
S3354,,山里,,26.317669,127.789183,S3354,,,
S3355,,山里,,26.317553,127.789516,S3355,,,
S3046,,喜舎場,,26.302221,127.792017,S3046,,,
S3924,,中城,,26.275340,127.780686,S3924,,,
S4369,,琉大入口,,26.255411,127.763731,S4369,,,
S3245,,幸地,,26.239191,127.742029,S3245,,,
S2745,,フリーゾーン前,,26.211662,127.657732,S2745,,,
S4938,,イオンモール沖縄ライカム,,26.314719,127.796252,S4938,,,
S1092,,第一伊平,4d61ab95-5e99-4f81-83ed-002fa87836c9,26.323124,127.758970,S1092,,,
S144,,伊礼原公園前,4d51ab95-5e99-4f81-83ed-002fa87836c9,26.321521,127.760396,S144,,,
S4388,,壺川,,26.204092,127.682219,S4388,,,
S2297,,真和志高校前,,26.202588,127.720317,S2297,,,
S2936,,沖縄市運動公園前,,26.334259,127.789900,S2936,,,
S3307,,佐久本商店前,,26.333737,127.790722,S3307,,,
S2739,,ナショナルクレジット前,,26.332206,127.792974,S2739,,,
S2738,,ナショナルクレジット前,,26.332143,127.792861,S2738,,,
S3306,,佐久本商店前,,26.333673,127.790615,S3306,,,
S2935,,沖縄市運動公園前,,26.334038,127.789965,S2935,,,
S2777,,旭町,,26.209162,127.678597,S2777,,,
S15,,おもろまち駅前広場,960f5c57-e441-4cf8-a3c1-ffa48f760d96,26.223428,127.698062,S15,,,
S4413,,志多伯,,26.150881,127.705734,S4413,,,
S5434,,港川崎原,,26.269917,127.708778,S5434,,,
S5436,,SCSK沖縄センター前,,26.259333,127.710000,S5436,,,
S5435,,港川崎原,,26.269861,127.708667,S5435,,,
S5667,,豊見城営業所,,26.154326,127.657354,S5667,,,
S5665,,運転免許センター前,,26.154800,127.655274,S5665,,,
S5546,,道の駅豊崎,,26.156944,127.655554,S5546,,,
S5548,,アウトレットモールあしびなー前,,26.158024,127.658103,S5548,,,
S5551,,豊崎入口,,26.159858,127.660072,S5551,,,
S5555,,翁長北,,26.161891,127.667857,S5555,,,
S4340,,与根入口,,26.165200,127.668383,S4340,,,
S3313,,座安入口,,26.166617,127.668000,S3313,,,
S2838,,伊良波,,26.171399,127.666667,S2838,,,
S3009,,我那覇,,26.175616,127.665600,S3009,,,
S4295,,名嘉地,,26.179382,127.664633,S4295,,,
S3275,,高良,,26.184615,127.660733,S3275,,,
S2865,,宇栄原入口,,26.187881,127.659916,S2865,,,
S3490,,新町入口,,26.190064,127.660300,S3490,,,
S3833,,第二ゲート,,26.191464,127.660166,S3833,,,
S3674,,赤嶺駅前,,26.193347,127.660466,S3674,,,
S3672,,赤嶺安里原,,26.193914,127.662999,S3672,,,
S3425,,小禄駅前,,26.196697,127.666932,S3425,,,
S4004,,田原,,26.198839,127.668542,S4004,,,
S4081,,那覇西高校前,,26.201313,127.665732,S4081,,,
S3139,,金城,,26.204546,127.662715,S3139,,,
S3173,,軍桟橋前,,26.204429,127.669748,S3173,,,
S3239,,公園前,,26.205196,127.672548,S3239,,,
S5404,,公園前,,26.204455,127.672243,S5404,,,
S3172,,軍桟橋前,,26.204035,127.669526,S3172,,,
S3138,,金城,,26.203530,127.662507,S3138,,,
S4080,,那覇西高校前,,26.201646,127.664999,S4080,,,
S4003,,田原,,26.198772,127.668737,S4003,,,
S3424,,小禄駅前,,26.196547,127.667232,S3424,,,
S3671,,赤嶺安里原,,26.193597,127.662683,S3671,,,
S3673,,赤嶺駅前,,26.193047,127.660250,S3673,,,
S3832,,第二ゲート,,26.191280,127.660300,S3832,,,
S3489,,新町入口,,26.190081,127.660416,S3489,,,
S2864,,宇栄原入口,,26.188464,127.660183,S2864,,,
S3274,,高良（那覇市）,,26.185548,127.659717,S3274,,,
S4294,,名嘉地,,26.178949,127.664850,S4294,,,
S3008,,我那覇,,26.174249,127.666133,S3008,,,
S2837,,伊良波,,26.171266,127.666900,S2837,,,
S3312,,座安入口,,26.165900,127.668300,S3312,,,
S4339,,与根入口,,26.164134,127.668767,S4339,,,
S5553,,翁長北,,26.161685,127.667781,S5553,,,
S5550,,豊崎入口,,26.159511,127.659994,S5550,,,
S5549,,アウトレットモールあしびなー前,,26.157849,127.658177,S5549,,,
S5547,,道の駅豊崎,,26.156809,127.655557,S5547,,,
S5666,,運転免許センター前,,26.155020,127.655217,S5666,,,
S1,,ＪＡ与那城前,5257ad11-affd-4bd6-a819-9aefbeebd762,26.329303,127.902640,S1,,,
S4133,,馬天入口,,26.184400,127.774174,S4133,,,
S4376,,壺川,,26.204146,127.681914,S4376,,,
S5716,,"沖縄プリンスホテル オーシャンビューぎのわん",,26.277065,127.732229,S5716,,,
S5719,,ベストウエスタン恩納,,26.431862,127.759025,S5719,,,
S5718,,"星野リゾート BEB5沖縄瀬良垣",,26.503705,127.862227,S5718,,,
S2493,,ホテルオリオンモトブリゾート＆スパ,,26.698482,127.879725,S2493,,,
S5717,,"星野リゾート BEB5沖縄瀬良垣",,26.503501,127.862193,S5717,,,
S2783,,安慶名,,26.373622,127.853249,S2783,,,
S7,,いずみ病院入口,e8ecf5ba-389f-4ec6-8f2c-69cfba4d0312,26.395578,127.832509,S7,,,
S4134,,馬天入口,,26.184050,127.774207,S4134,,,
S5396,,那覇空港国内線,,26.207347,127.651163,S5396,,,1
S2495,,那覇空港（国内線）,,26.206382,127.651239,S2495,,,3F
S6049,,那覇空港国内線,,26.206707,127.651179,S6049,,,3
S1398,,南栄入口,18a0a526-fa89-4428-aa63-bb23d8f99baf,26.424275,127.825342,S1398,,,
S5893,,北谷ゲートウェイ,,26.314246,127.758393,S5893,,,2
S6051,,ジャングリア沖縄,,26.643068,127.972481,S6051,,,
